$GAGSV,2,1,07,29,37,122,34,31,41,266,34,33,54,341,34,07,24,061,22,1*7C
$GAGSV,2,2,07,26,36,055,30,12,19,285,31,24,13,315,15,1*41
$GAGSV,2,1,07,29,37,122,42,31,41,266,40,33,54,341,37,07,24,061,33,2*7E
$GAGSV,2,2,07,26,36,055,38,12,19,285,37,24,13,315,28,2*42
$GAGSV,2,1,07,29,37,122,42,31,41,266,36,33,54,341,40,07,24,061,29,7*71
$GAGSV,2,2,07,26,36,055,39,12,19,285,31,24,13,315,32,7*4B
$GQGSV,1,1,04,02,38,172,45,03,67,060,41,04,58,128,37,07,53,166,34,1*6D
$GQGS$GNGGA,065122.00,3019.26112582,N,12004.26338295,E,4,22,0.6,4.6593,M,7.8970,M,2.0,589*50
$GNGGA,065122.00,3019.26112582,N,12004.26338295,E,4,22,0.6,4.6593,M,7.8970,M,2.0,589*50
$GNGNS,065122.00,3019.26112582,N,12004.26338295,E,RRRNR,22,0.6,4.6593,7.8970,,,S*56
$GPGNS,065122.00,,,,,,07,,,,2.0,589,S*01
$GLGNS,065122.00,,,,,,04,,,,2.0,589,S*1E
$GAGNS,065122.00,,,,,,07,,,,2.0,589,S*10
$GQGNS,065122.00,,,,,,04,,,,2.0,589,S*03
$GNGLL,3019.26112582,N,12004.26338295,E,065122.00,A,D*77
$GNGSA,M,3,06,09,11,17,19,12,04,,,,,,1.3,0.6,1.2,1*3C
$GNGSA,M,3,69,85,84,70,,,,,,,,,1.3,0.6,1.2,2*30
$GNGSA,M,3,29,31,33,07,26,12,24,,,,,,1.3,0.6,1.2,3*37
$GNGSA,M,3,02,03,04,07,,,,,,,,,1.3,0.6,1.2,5*3C
$GNRMC,065122.00,D,3019.26112582,N,12004.26338295,E,0.001,181.5,290425,6.0,W,R,S*57
$GNGST,065122.00,4.03,0.01,0.01,35.3058,0.013,0.012,0.036*70
#UNIHEADINGA,83,GPS,FINE,2364,197500000,0,0,18,13;SOL_COMPUTED,NARROW_INT,0.7762,73.8487,-2.1683,0.0000,0.3737,1.1278,"999",23,21,21,16,3,01,3,33*93250a44
$GNGBS,065122.00,2.6,1.6,5.3,84,0.0,-6.7,19.8,2,1*65
$GPGSV,2,1,08,06,54,020,42,09,36,075,40,11,49,320,40,17,35,131,44,1*6D
$GPGSV,2,2,08,19,62,120,44,12,28,291,35,04,14,047,32,20,50,253,19,1*6E
$GPGSV,2,1,07,06,54,020,44,09,36,075,41,11,49,320,40,17,35,131,37,4*64
$GPGSV,2,2,07,19,62,120,39,12,28,291,26,04,14,047,33,4*56
$GPGSV,1,1,04,06,54,020,39,09,36,075,38,11,49,320,39,04,14,047,31,8*65
$GLGSV,2,1,05,69,32,037,41,85,45,357,37,76,11,310,29,84,34,069,30,1*77
$GLGSV,2,2,05,70,63,147,30,1*4E
$GLGSV,1,1,04,69,32,037,35,85,45,357,39,76,11,310,20,84,34,069,38,3*7B
$GAGSV,2,1,07,29,37,122,34,31,41,266,34,33,54,341,34,07,24,061,22,1*7C
$GAGSV,2,2,07,26,36,055,30,12,19,285,31,24,13,315,16,1*42
$GAGSV,2,1,07,29,37,122,42,31,41,266,40,33,54,341,38,07,24,061,33,2*71
$GAGSV,2,2,07,26,36,055,38,12,19,285,38,24,13,315,27,2*42
$GAGSV,2,1,07,29,37,122,42,31,41,266,35,33,54,341,40,07,24,061,29,7*72
$GAGSV,2,2,07,26,36,055,39,12,19,285,31,24,13,315,32,7*4B
$GQGSV,1,1,04,02,38,172,45,03,67,060,41,04,58,128,37,07,53,166,34,1*6D
$GQGS172,43,03,67,060,41,04,58,128,45,07,53,166,44,6*6E
$GQGSV,1,1,04,02,38,172,38,03,67,060,39,04,58,128,40,07,53,166,43,8*61
$GNGGA,065123.00,3019.26112704,N,12004.26338079,E,4,22,0.6,4.6526,M,7.8969,M,2.0,589*5B
$GNGGA,065123.00,3019.26112704,N,12004.26338079,E,4,22,0.6,4.6526,M,7.8969,M,2.0,589*5B
$GNGNS,065123.00,3019.26112704,N,12004.26338079,E,RRRNR,22,0.6,4.6526,7.8969,,,S*5D
$GPGNS,065123.00,,,,,,07,,,,2.0,589,S*00
$GLGNS,065123.00,,,,,,04,,,,2.0,589,S*1F
$GAGNS,065123.00,,,,,,07,,,,2.0,589,S*11
$GQGNS,065123.00,,,,,,04,,,,2.0,589,S*02
$GNGLL,3019.26112704,N,12004.26338079,E,065123.00,A,D*7A
$GNGSA,M,3,06,09,11,17,19,12,04,,,,,,1.3,0.6,1.2,1*3C
$GNGSA,M,3,69,85,84,70,,,,,,,,,1.3,0.6,1.2,2*30
$GNGSA,M,3,29,31,33,07,26,12,24,,,,,,1.3,0.6,1.2,3*37
$GNGSA,M,3,02,03,04,07,,,,,,,,,1.3,0.6,1.2,5*3C
$GNRMC,065123.00,D,3019.26112704,N,12004.26338079,E,0.001,235.4,290425,6.0,W,R,S*57
$GNGST,065123.00,3.52,0.01,0.01,35.4782,0.014,0.012,0.036*72
#UNIHEADINGA,87,GPS,FINE,2364,197501000,0,0,18,14;SOL_COMPUTED,NARROW_INT,0.7708,74.5464,-2.5014,0.0000,0.3779,1.1381,"999",23,21,21,17,3,01,3,33*f1c2ef95
$GNGBS,065123.00,2.3,1.4,4.8,85,0.0,5.4,16.5,2,1*47
$GPGSV,2,1,08,06,54,020,42,09,36,075,40,11,49,320,39,17,35,131,44,1*63
$GPGSV,2,2,08,19,62,120,44,12,28,291,35,04,14,047,32,20,50,253,17,1*60
$GPGSV,2,1,07,06,54,020,43,09,36,075,41,11,49,320,39,17,35,131,37,4*6D
$GPGSV,2,2,07,19,62,120,39,12,28,291,27,04,14,047,34,4*50
$GPGSV,1,1,04,06,54,020,38,09,36,075,38,11,49,320,38,04,14,047,31,8*65
$GLGSV,2,1,05,69,31,037,41,85,45,357,37,76,11,310,28,84,34,069,30,1*75
$GLGSV,2,2,05,70,63,147,30,1*4E
$GLGSV,1,1,04,69,31,037,35,85,45,357,39,76,11,310,21,84,34,069,37,3*76
$GAGSV,2,1,07,29,37,122,34,31,41,266,33,33,54,341,33,07,24,061,22,1*7C
$GAGSV,2,2,07,26,36,055,29,12,19,285,30,24,13,315,16,1*4B
$GAGSV,2,1,07,29,37,122,42,31,41,266,39,33,54,341,38,07,24,061,33,2*7F
$GAGSV,2,2,07,26,36,055,37,12,19,285,37,24,13,315,26,2*43
$GAGSV,2,1,07,29,37,122,42,31,41,266,35,33,54,341,39,07,24,061,29,7*7C
$GAGSV,2,2,07,26,36,055,39,12,19,285,31,24,13,315,31,7*48
$GQGSV,1,1,04,02,38,172,44,03,67,060,41,04,58,128,37,07,53,166,33,1*6B
$GQGSV72,42,03,67,060,41,04,58,128,45,07,53,166,44,6*6F
$GQGSV,1,1,04,02,38,172,37,03,67,060,39,04,58,128,40,07,53,166,42,8*6F
$GNGGA,065124.00,3019.26112530,N,12004.26338209,E,4,21,0.6,4.6594,M,7.8970,M,2.0,589*5E
$GNGGA,065124.00,3019.26112530,N,12004.26338209,E,4,21,0.6,4.6594,M,7.8970,M,2.0,589*5E
$GNGNS,065124.00,3019.26112530,N,12004.26338209,E,RRRNR,21,0.6,4.6594,7.8970,,,S*58
$GPGNS,065124.00,,,,,,07,,,,2.0,589,S*07
$GLGNS,065124.00,,,,,,03,,,,2.0,589,S*1F
$GAGNS,065124.00,,,,,,07,,,,2.0,589,S*16
$GQGNS,065124.00,,,,,,04,,,,2.0,589,S*05
$GNGLL,3019.26112530,N,12004.26338209,E,065124.00,A,D*7D
$GNGSA,M,3,06,09,11,17,19,12,04,,,,,,1.4,0.6,1.2,1*3B
$GNGSA,M,3,69,85,84,,,,,,,,,,1.4,0.6,1.2,2*30
$GNGSA,M,3,29,31,33,07,26,12,24,,,,,,1.4,0.6,1.2,3*30
$GNGSA,M,3,02,03,04,07,,,,,,,,,1.4,0.6,1.2,5*3B
$GNRMC,065124.00,D,3019.26112530,N,12004.26338209,E,0.002,189.8,290425,6.0,W,R,S*5B
$GNGST,065124.00,3.18,0.02,0.01,35.6320,0.014,0.012,0.037*77
#UNIHEADINGA,84,GPS,FINE,2364,197502000,0,0,18,13;SOL_COMPUTED,NARROW_INT,0.7755,73.8744,-1.3116,0.0000,0.3741,1.1294,"999",23,21,21,16,3,01,3,33*5e77d82b
$GNGBS,065124.00,2.1,1.3,4.5,85,0.0,5.0,15.4,2,1*4E
$GPGSV,2,1,08,06,54,020,42,09,36,075,39,11,49,320,39,17,35,131,44,1*6D
$GPGSV,2,2,08,19,62,120,43,12,28,291,35,04,14,047,30,20,50,253,17,1*65
$GPGSV,2,1,07,06,54,020,43,09,36,075,41,11,49,320,39,17,35,131,37,4*6D
$GPGSV,2,2,07,19,62,120,39,12,28,291,27,04,14,047,35,4*51
$GPGSV,1,1,04,06,54,020,38,09,36,075,38,11,49,320,38,04,14,047,30,8*64
$GLGSV,2,1,05,69,31,037,41,85,45,357,38,76,11,310,27,84,34,069,31,1*74
$GLGSV,2,2,05,70,63,147,29,1*46
$GLGSV,1,1,04,69,31,037,37,85,45,357,39,76,11,310,24,84,34,069,37,3*71
$GAGSV,2,1,07,29,37,122,34,31,41,266,33,33,54,341,33,07,24,061,21,1*7F
$GAGSV,2,2,07,26,36,055,29,12,19,285,30,24,13,315,17,1*4A
$GAGSV,2,1,07,29,37,122,42,31,41,266,39,33,54,341,37,07,24,061,33,2*70
$GAGSV,2,2,07,26,36,055,37,12,19,285,37,24,13,315,27,2*42
$GAGSV,2,1,07,29,37,122,42,31,41,266,35,33,54,341,39,07,24,061,29,7*7C
$GAGSV,2,2,07,26,36,055,39,12,19,285,31,24,13,315,32,7*4B
$GQGSV,1,1,04,02,38,172,44,03,67,060,41,04,58,128,37,07,53,166,33,1*6B
$GQGSV,1$GNGGA,065125.00,3019.26112376,N,12004.26338100,E,4,21,0.6,4.6651,M,7.8969,M,2.0,589*53
$GNGGA,065125.00,3019.26112376,N,12004.26338100,E,4,21,0.6,4.6651,M,7.8969,M,2.0,589*53
$GNGNS,065125.00,3019.26112376,N,12004.26338100,E,RRRNR,21,0.6,4.6651,7.8969,,,S*55
$GPGNS,065125.00,,,,,,07,,,,2.0,589,S*06
$GLGNS,065125.00,,,,,,03,,,,2.0,589,S*1E
$GAGNS,065125.00,,,,,,07,,,,2.0,589,S*17
$GQGNS,065125.00,,,,,,04,,,,2.0,589,S*04
$GNGLL,3019.26112376,N,12004.26338100,E,065125.00,A,D*72
$GNGSA,M,3,06,09,11,17,19,12,04,,,,,,1.4,0.6,1.2,1*3B
$GNGSA,M,3,69,85,84,,,,,,,,,,1.4,0.6,1.2,2*30
$GNGSA,M,3,29,31,33,07,26,12,24,,,,,,1.4,0.6,1.2,3*30
$GNGSA,M,3,02,03,04,07,,,,,,,,,1.4,0.6,1.2,5*3B
$GNRMC,065125.00,D,3019.26112376,N,12004.26338100,E,0.002,206.2,290425,6.0,W,R,S*5A
$GNGST,065125.00,2.98,0.02,0.01,35.7028,0.014,0.012,0.036*74
#UNIHEADINGA,82,GPS,FINE,2364,197503000,0,0,18,14;SOL_COMPUTED,NARROW_INT,0.7711,74.6288,-2.3428,0.0000,0.4002,1.1687,"999",23,20,20,16,3,01,3,33*8673dede
$GNGBS,065125.00,2.1,1.3,4.4,85,0.0,4.7,14.7,2,1*4A
$GPGSV,2,1,08,06,54,020,42,09,36,075,39,11,49,320,40,17,35,131,45,1*62
$GPGSV,2,2,08,19,62,120,44,12,28,291,36,04,14,047,31,20,50,253,17,1*60
$GPGSV,2,1,07,06,54,020,44,09,36,075,41,11,49,320,39,17,35,131,38,4*65
$GPGSV,2,2,07,19,62,120,39,12,28,291,27,04,14,047,35,4*51
$GPGSV,1,1,04,06,54,020,38,09,36,075,38,11,49,320,38,04,14,047,30,8*64
$GLGSV,2,1,05,69,31,037,41,85,45,357,38,76,11,310,28,84,34,069,31,1*7B
$GLGSV,2,2,05,70,63,147,30,1*4E
$GLGSV,1,1,04,69,31,037,36,85,45,357,39,76,11,310,23,84,34,069,37,3*77
$GAGSV,2,1,07,29,37,122,34,31,41,266,33,33,54,341,33,07,24,061,21,1*7F
$GAGSV,2,2,07,26,36,055,29,12,19,285,30,24,13,315,17,1*4A
$GAGSV,2,1,07,29,37,122,42,31,41,266,39,33,54,341,38,07,24,061,33,2*7F
$GAGSV,2,2,07,26,36,055,38,12,19,285,37,24,13,315,27,2*4D
$GAGSV,2,1,07,29,37,122,42,31,41,266,35,33,54,341,39,07,24,061,29,7*7C
$GAGSV,2,2,07,26,36,055,39,12,19,285,31,24,13,315,32,7*4B
$GQGSV,1,1,04,02,38,172,44,03,67,060,41,04,58,128,38,07,53,166,34,1*63
$GQGSV,1,43,03,67,060,42,04,58,128,45,07,53,166,45,6*6C
$GQGSV,1,1,04,02,38,172,37,03,67,060,39,04,58,128,40,07,53,166,42,8*6F
$GNGGA,065126.00,3019.26112430,N,12004.26338211,E,4,22,0.6,4.6558,M,7.8970,M,2.0,589*57
$GNGGA,065126.00,3019.26112430,N,12004.26338211,E,4,22,0.6,4.6558,M,7.8970,M,2.0,589*57
$GNGNS,065126.00,3019.26112430,N,12004.26338211,E,RRRNR,22,0.6,4.6558,7.8970,,,S*51
$GPGNS,065126.00,,,,,,07,,,,2.0,589,S*05
$GLGNS,065126.00,,,,,,04,,,,2.0,589,S*1A
$GAGNS,065126.00,,,,,,07,,,,2.0,589,S*14
$GQGNS,065126.00,,,,,,04,,,,2.0,589,S*07
$GNGLL,3019.26112430,N,12004.26338211,E,065126.00,A,D*77
$GNGSA,M,3,06,09,11,17,19,12,04,,,,,,1.3,0.6,1.2,1*3C
$GNGSA,M,3,69,85,84,70,,,,,,,,,1.3,0.6,1.2,2*30
$GNGSA,M,3,29,31,33,07,26,12,24,,,,,,1.3,0.6,1.2,3*37
$GNGSA,M,3,02,03,04,07,,,,,,,,,1.3,0.6,1.2,5*3C
$GNRMC,065126.00,D,3019.26112430,N,12004.26338211,E,0.003,182.0,290425,6.0,W,R,S*53
$GNGST,065126.00,2.88,0.01,0.01,35.6493,0.014,0.012,0.036*70
#UNIHEADINGA,86,GPS,FINE,2364,197504000,0,0,18,13;SOL_COMPUTED,NARROW_INT,0.7765,73.9593,-1.5365,0.0000,0.3712,1.1163,"999",23,21,21,15,3,01,3,33*18c64d19
$GNGBS,065126.00,2.0,1.2,4.1,85,0.0,4.3,13.5,2,1*4D
$GPGSV,2,1,08,06,54,020,42,09,36,075,40,11,49,320,40,17,35,131,45,1*6C
$GPGSV,2,2,08,19,62,120,44,12,28,291,37,04,14,047,31,20,50,253,19,1*6F
$GPGSV,2,1,07,06,54,020,44,09,36,075,41,11,49,320,40,17,35,131,38,4*6B
$GPGSV,2,2,07,19,62,120,39,12,28,291,27,04,14,047,35,4*51
$GPGSV,1,1,04,06,54,020,38,09,36,075,38,11,49,320,38,04,14,047,31,8*65
$GLGSV,2,1,05,69,31,037,41,85,45,357,37,76,11,310,29,84,34,069,31,1*75
$GLGSV,2,2,05,70,63,147,30,1*4E
$GLGSV,1,1,04,69,31,037,36,85,45,357,39,76,11,310,23,84,34,069,37,3*77
$GAGSV,2,1,07,29,37,122,34,31,41,266,33,33,54,341,34,07,24,061,21,1*78
$GAGSV,2,2,07,26,36,055,29,12,19,285,30,24,13,315,18,1*45
$GAGSV,2,1,07,29,37,122,42,31,41,266,40,33,54,341,38,07,24,061,34,2*76
$GAGSV,2,2,07,26,36,055,38,12,19,285,37,24,13,315,28,2*42
$GAGSV,2,1,07,29,37,122,42,31,41,266,35,33,54,341,40,07,24,061,28,7*73
$GAGSV,2,2,07,26,36,055,39,12,19,285,32,24,13,315,32,7*48
$GQGSV,1,1,04,02,38,172,45,03,67,060,42,04,58,128,38,07,53,166,34,1*61
$GQGSV72,43,03,67,060,41,04,58,128,45,07,53,166,45,6*6F
$GQGSV,1,1,04,02,38,172,37,03,67,060,39,04,58,128,40,07,53,166,42,8*6F
$GNGGA,065127.00,3019.26112287,N,12004.26338286,E,4,21,0.6,4.6654,M,7.8970,M,2.0,589*5E
$GNGGA,065127.00,3019.26112287,N,12004.26338286,E,4,21,0.6,4.6654,M,7.8970,M,2.0,589*5E
$GNGNS,065127.00,3019.26112287,N,12004.26338286,E,RRRNR,21,0.6,4.6654,7.8970,,,S*58
$GPGNS,065127.00,,,,,,07,,,,2.0,589,S*04
$GLGNS,065127.00,,,,,,03,,,,2.0,589,S*1C
$GAGNS,065127.00,,,,,,07,,,,2.0,589,S*15
$GQGNS,065127.00,,,,,,04,,,,2.0,589,S*06
$GNGLL,3019.26112287,N,12004.26338286,E,065127.00,A,D*72
$GNGSA,M,3,06,09,11,17,19,12,04,,,,,,1.4,0.6,1.2,1*3B
$GNGSA,M,3,69,85,84,,,,,,,,,,1.4,0.6,1.2,2*30
$GNGSA,M,3,29,31,33,07,26,12,24,,,,,,1.4,0.6,1.2,3*30
$GNGSA,M,3,02,03,04,07,,,,,,,,,1.4,0.6,1.2,5*3B
$GNRMC,065127.00,D,3019.26112287,N,12004.26338286,E,0.003,163.8,290425,6.0,W,R,S*51
$GNGST,065127.00,2.70,0.01,0.01,35.5786,0.014,0.012,0.036*72
#UNIHEADINGA,86,GPS,FINE,2364,197505000,0,0,18,13;SOL_COMPUTED,NARROW_INT,0.7662,74.0893,-1.5175,0.0000,0.4258,1.0333,"999",23,21,21,16,3,01,3,33*bc32f394
$GNGBS,065127.00,1.8,1.1,3.7,6,0.0,-4.3,13.4,1,1*51
$GPGSV,2,1,08,06,54,020,42,09,36,075,40,11,49,320,41,17,35,131,45,1*6D
$GPGSV,2,2,08,19,62,120,44,12,28,291,37,04,14,047,31,20,50,253,19,1*6F
$GPGSV,2,1,07,06,54,020,43,09,36,075,40,11,49,320,39,17,35,131,39,4*62
$GPGSV,2,2,07,19,62,120,39,12,28,291,28,04,14,047,34,4*5F
$GPGSV,1,1,04,06,54,020,39,09,36,075,38,11,49,320,38,04,14,047,31,8*64
$GLGSV,2,1,05,69,31,037,42,85,45,357,37,76,11,310,30,84,34,069,31,1*7E
$GLGSV,2,2,05,70,63,147,29,1*46
$GLGSV,1,1,04,69,31,037,36,85,45,357,40,76,11,310,20,84,34,069,37,3*7A
$GAGSV,2,1,07,29,37,122,34,31,41,266,34,33,54,341,34,07,24,061,21,1*7F
$GAGSV,2,2,07,26,36,055,29,12,19,285,30,24,13,315,17,1*4A
$GAGSV,2,1,07,29,37,122,42,31,41,266,40,33,54,341,37,07,24,061,33,2*7E
$GAGSV,2,2,07,26,36,055,38,12,19,285,37,24,13,315,28,2*42
$GAGSV,2,1,07,29,37,122,43,31,41,266,36,33,54,341,40,07,24,061,29,7*70
$GAGSV,2,2,07,26,36,055,40,12,19,285,32,24,13,315,32,7*46
$GQGSV,1,1,04,02,38,172,45,03,67,060,41,04,58,128,39,07,53,166,34,1*63
