$GBGGA,070018.00,3019.25933094,N,12004.27484042,E,4,14,1.2,5.0794,M,7.8976,M,2.0,589*57
$GBGGA,070018.00,3019.25933094,N,12004.27484042,E,4,14,1.2,5.0794,M,7.8976,M,2.0,589*57
$GBGNS,070018.00,3019.25933094,N,12004.27484042,E,NNNRN,14,1.2,5.0794,7.8976,,,S*4D
$GBGNS,070018.00,,,,,,14,,,,2.0,589,S*1D
$GBGLL,3019.25933094,N,12004.27484042,E,070018.00,A,D*74
$GBGSA,M,3,01,10,07,12,59,22,35,38,44,34,40,04,2.4,1.2,2.1,4*30
$GBGSA,M,3,21,03,,,,,,,,,,,2.4,1.2,2.1,4*32
$GBRMC,070018.00,D,3019.25933094,N,12004.27484042,E,0.040,230.9,290425,6.0,W,R,S*54
$GBGST,070018.00,1.24,0.02,0.01,63.2319,0.016,0.020,0.050*73
#UNIHEADINGA,91,GPS,FINE,2364,198036000,0,0,18,12;SOL_COMPUTED,NARROW_INT,0.7860,355.2618,-3.1609,0.0000,1.0510,2.3869,"999",16,13,13,13,3,01,0,c0*92982085
$GBGBS,070018.00,1.1,1.2,2.6,59,0.0,-1.7,10.7,4,1*60
$GBGSV,4,1,15,01,46,136,28,10,74,269,36,07,77,214,39,12,62,356,40,1*79
$GBGSV,4,2,15,59,48,143,40,22,52,054,39,35,26,109,40,38,72,281,39,1*7B
$GBGSV,4,3,15,44,67,065,37,34,41,320,39,40,74,141,38,04,35,119,34,1*7E
$GBGSV,4,4,15,21,62,179,44,11,18,310,23,03,53,198,22,1*45
$GBGSV,4,1,15,01,46,136,35,10,74,269,35,07,77,214,40,12,62,356,43,8*72
$GBGSV,4,2,15,59,48,143,42,22,52,054,41,35,26,109,32,38,72,281,41,8*75
$GBGSV,4,3,15,44,67,065,44,34,41,320,36,40,74,141,42,04,35,119,34,8*71
$GBGSV,4,4,15,21,62,179,42,08,62,259,23,11,18,310,21,8*4E
$GBGSV,2,1,08,01,46,136,39,10,74,269,41,07,77,214,44,12,62,356,47,B*0D
$GBGSV,2,2,08,04,35,119,39,08,62,259,25,11,18,310,26,03,53,198,33,B*03
$GBGGA,070019.00,3019.25932772,N,12004.27484062,E,4,14,1.2,5.0875,M,7.8976,M,2.0,589*5A
$GBGGA,070019.00,3019.25932772,N,12004.27484062,E,4,14,1.2,5.0875,M,7.8976,M,2.0,589*5A
$GBGNS,070019.00,3019.25932772,N,12004.27484062,E,NNNRN,14,1.2,5.0875,7.8976,,,S*40
$GBGNS,070019.00,,,,,,14,,,,2.0,589,S*1C
$GBGLL,3019.25932772,N,12004.27484062,E,070019.00,A,D*79
$GBGSA,M,3,01,10,07,12,59,22,35,38,44,34,40,04,2.4,1.2,2.1,4*30
$GBGSA,M,3,21,03,,,,,,,,,,,2.4,1.2,2.1,4*32
$GBRMC,070019.00,D,3019.25932772,N,12004.27484062,E,0.018,203.1,290425,6.0,W,R,S*5C
$GBGST,070019.00,1.18,0.02,0.01,63.2822,0.016,0.020,0.051*7F
#UNIHEADINGA,88,GPS,FINE,2364,198037000,0,0,18,13;SOL_COMPUTED,NARROW_INT,0.7883,355.4032,-2.7301,0.0000,1.0458,2.3846,"999",16,13,13,13,3,01,0,c0*da5c34a6
$GBGBS,070019.00,1.0,1.2,2.6,59,0.0,-1.7,10.6,4,1*61
$GBGSV,4,1,15,01,46,136,29,10,74,269,37,07,77,214,39,12,62,356,40,1*79
$GBGSV,4,2,15,59,48,143,41,22,52,054,38,35,26,109,40,38,72,281,38,1*7A
$GBGSV,4,3,15,44,67,065,37,34,41,320,39,40,74,141,39,04,35,119,35,1*7E
$GBGSV,4,4,15,21,62,179,43,11,18,310,21,03,53,198,25,1*47
$GBGSV,4,1,15,01,46,136,35,10,74,269,35,07,77,214,40,12,62,356,43,8*72
$GBGSV,4,2,15,59,48,143,42,22,52,054,41,35,26,109,32,38,72,281,41,8*75
$GBGSV,4,3,15,44,67,065,44,34,41,320,36,40,74,141,42,04,35,119,35,8*70
$GBGSV,4,4,15,21,62,179,42,08,62,259,23,11,18,310,20,8*4F
$GBGSV,2,1,08,01,46,136,39,10,74,269,41,07,77,214,44,12,62,356,47,B*0D
$GBGSV,2,2,08,04,35,119,40,08,62,259,26,11,18,310,28,03,53,198,33,B*00
$GBGGA,070020.00,3019.25932970,N,12004.27484228,E,4,14,1.2,5.0777,M,7.8976,M,2.0,589*5D
$GBGGA,070020.00,3019.25932970,N,12004.27484228,E,4,14,1.2,5.0777,M,7.8976,M,2.0,589*5D
$GBGNS,070020.00,3019.25932970,N,12004.27484228,E,NNNRN,14,1.2,5.0777,7.8976,,,S*47
$GBGNS,070020.00,,,,,,14,,,,2.0,589,S*16
$GBGLL,3019.25932970,N,12004.27484228,E,070020.00,A,D*73
$GBGSA,M,3,01,10,07,12,59,22,35,38,44,34,40,04,2.4,1.2,2.1,4*30
$GBGSA,M,3,21,03,,,,,,,,,,,2.4,1.2,2.1,4*32
$GBRMC,070020.00,D,3019.25932970,N,12004.27484228,E,0.021,218.5,290425,6.0,W,R,S*52
$GBGST,070020.00,1.16,0.02,0.01,63.1556,0.016,0.020,0.050*77
#UNIHEADINGA,89,GPS,FINE,2364,198038000,0,0,18,12;SOL_COMPUTED,NARROW_INT,0.7898,355.2618,-3.4925,0.0000,1.0357,2.3546,"999",16,13,13,13,3,01,0,c0*d46a8f9a
$GBGBS,070020.00,1.0,1.2,2.6,59,0.0,-1.7,10.8,4,1*65
$GBGSV,4,1,15,01,46,136,30,10,74,269,38,07,77,214,40,12,62,356,40,1*70
$GBGSV,4,2,15,59,48,143,41,22,52,054,39,35,26,109,41,38,72,281,39,1*7B
$GBGSV,4,3,15,44,67,065,38,34,41,320,41,40,74,141,40,04,35,119,36,1*73
$GBGSV,4,4,15,21,62,179,44,11,18,310,22,03,53,198,25,1*43
$GBGSV,4,1,15,01,46,136,35,10,74,269,36,07,77,214,40,12,62,356,44,8*76
$GBGSV,4,2,15,59,48,143,43,22,52,054,42,35,26,109,33,38,72,281,41,8*76
$GBGSV,4,3,15,44,67,065,45,34,41,320,37,40,74,141,43,04,35,119,35,8*71
$GBGSV,4,4,15,21,62,179,43,08,62,259,23,11,18,310,19,8*44
$GBGSV,2,1,08,01,46,136,40,10,74,269,42,07,77,214,45,12,62,356,48,B*0E
$GBGSV,2,2,08,04,35,119,41,08,62,259,27,11,18,310,29,03,53,198,34,B*06
$GBGGA,070021.00,3019.25933170,N,12004.27484681,E,4,14,1.2,5.0939,M,7.8976,M,2.0,589*56
$GBGGA,070021.00,3019.25933170,N,12004.27484681,E,4,14,1.2,5.0939,M,7.8976,M,2.0,589*56
$GBGNS,070021.00,3019.25933170,N,12004.27484681,E,NNNRN,14,1.2,5.0939,7.8976,,,S*4C
$GBGNS,070021.00,,,,,,14,,,,2.0,589,S*17
$GBGLL,3019.25933170,N,12004.27484681,E,070021.00,A,D*7C
$GBGSA,M,3,01,10,07,12,59,22,35,38,44,34,40,04,2.4,1.2,2.1,4*30
$GBGSA,M,3,21,03,,,,,,,,,,,2.4,1.2,2.1,4*32
$GBRMC,070021.00,D,3019.25933170,N,12004.27484681,E,0.046,52.7,290425,6.0,W,R,S*62
$GBGST,070021.00,1.15,0.02,0.01,63.3646,0.016,0.020,0.051*74
#UNIHEADINGA,92,GPS,FINE,2364,198039000,0,0,18,12;SOL_COMPUTED,NARROW_INT,0.7888,355.2313,-3.7882,0.0000,1.0406,2.3664,"999",16,13,13,13,3,01,0,c0*fb2b14f6
$GBGBS,070021.00,1.0,1.1,2.5,59,0.0,-1.7,10.9,4,1*65
$GBGSV,4,1,15,01,46,136,30,10,74,269,37,07,77,214,39,12,62,356,39,1*7F
$GBGSV,4,2,15,59,48,143,41,22,52,054,39,35,26,109,40,38,72,281,38,1*7B
$GBGSV,4,3,15,44,67,065,37,34,41,320,39,40,74,141,39,04,35,119,35,1*7E
$GBGSV,4,4,15,21,62,179,44,11,18,310,22,03,53,198,24,1*42
$GBGSV,4,1,15,01,46,136,35,10,74,269,35,07,77,214,40,12,62,356,44,8*75
$GBGSV,4,2,15,59,48,143,43,22,52,054,42,35,26,109,32,38,72,281,41,8*77
$GBGSV,4,3,15,44,67,065,45,34,41,320,36,40,74,141,43,04,35,119,35,8*70
$GBGSV,4,4,15,21,62,179,42,08,62,259,23,11,18,310,20,8*4F
$GBGSV,2,1,08,01,46,136,39,10,74,269,41,07,77,214,44,12,62,356,48,B*02
$GBGSV,2,2,08,04,35,119,41,08,62,259,26,11,18,310,28,03,53,198,33,B*01
$GBGGA,070022.00,3019.25932684,N,12004.27484887,E,4,14,1.2,5.0983,M,7.8976,M,2.0,589*51
$GBGGA,070022.00,3019.25932684,N,12004.27484887,E,4,14,1.2,5.0983,M,7.8976,M,2.0,589*51
$GBGNS,070022.00,3019.25932684,N,12004.27484887,E,NNNRN,14,1.2,5.0983,7.8976,,,S*4B
$GBGNS,070022.00,,,,,,14,,,,2.0,589,S*14
$GBGLL,3019.25932684,N,12004.27484887,E,070022.00,A,D*7A
$GBGSA,M,3,01,10,07,12,59,22,35,38,44,34,40,04,2.4,1.2,2.1,4*30
$GBGSA,M,3,21,03,,,,,,,,,,,2.4,1.2,2.1,4*32
$GBRMC,070022.00,D,3019.25932684,N,12004.27484887,E,0.040,130.6,290425,6.0,W,R,S*56
$GBGST,070022.00,1.11,0.02,0.01,64.5420,0.016,0.020,0.052*73
#UNIHEADINGA,92,GPS,FINE,2364,198040000,0,0,18,13;SOL_COMPUTED,NARROW_INT,0.7903,354.0020,-6.3768,0.0000,0.9682,2.1193,"999",16,14,14,13,3,01,0,c0*1ae25417
$GBGBS,070022.00,0.9,1.1,2.3,59,0.0,-1.7,11.3,4,1*63
$GBGSV,4,1,15,01,46,136,30,10,74,269,37,07,77,214,39,12,62,356,39,1*7F
$GBGSV,4,2,15,59,48,143,41,22,52,054,39,35,26,109,40,38,72,281,39,1*7A
$GBGSV,4,3,15,44,67,065,37,34,41,320,37,40,74,141,39,04,35,119,35,1*70
$GBGSV,4,4,15,21,62,179,44,11,18,310,22,03,53,198,24,1*42
$GBGSV,4,1,15,01,46,136,35,10,74,269,36,07,77,214,40,12,62,356,43,8*71
$GBGSV,4,2,15,59,48,143,43,22,52,054,42,35,26,109,32,38,72,281,41,8*77
$GBGSV,4,3,15,44,67,065,45,34,41,320,36,40,74,141,42,04,35,119,35,8*71
$GBGSV,4,4,15,21,62,179,42,08,62,259,22,11,18,310,21,8*4F
$GBGSV,2,1,08,01,46,136,39,10,74,269,42,07,77,214,44,12,62,356,48,B*01
$GBGSV,2,2,08,04,35,119,41,08,62,259,26,11,18,310,28,03,53,198,34,B*06
$GBGGA,070023.00,3019.25932783,N,12004.27484828,E,4,13,1.4,5.1159,M,7.8976,M,2.0,589*5C
$GBGGA,070023.00,3019.25932783,N,12004.27484828,E,4,13,1.4,5.1159,M,7.8976,M,2.0,589*5C
$GBGNS,070023.00,3019.25932783,N,12004.27484828,E,NNNRN,13,1.4,5.1159,7.8976,,,S*46
$GBGNS,070023.00,,,,,,13,,,,2.0,589,S*12
$GBGLL,3019.25932783,N,12004.27484828,E,070023.00,A,D*78
$GBGSA,M,3,01,10,07,12,59,22,35,38,44,34,40,04,2.6,1.4,2.2,4*37
$GBGSA,M,3,21,,,,,,,,,,,,2.6,1.4,2.2,4*36
$GBRMC,070023.00,D,3019.25932783,N,12004.27484828,E,0.019,51.2,290425,6.0,W,R,S*6A
$GBGST,070023.00,1.03,0.02,0.02,62.5128,0.017,0.021,0.054*7F
#UNIHEADINGA,91,GPS,FINE,2364,198041000,0,0,18,12;SOL_COMPUTED,NARROW_INT,0.7870,354.4877,-5.1495,0.0000,1.0489,2.3706,"999",16,13,13,13,3,01,0,c0*32943a00
$GBGBS,070023.00,1.2,1.3,2.9,4,0.0,2.7,14.6,4,1*76
$GBGSV,4,1,15,01,46,136,29,10,74,269,37,07,77,214,38,12,62,356,39,1*76
$GBGSV,4,2,15,59,48,143,40,22,52,054,39,35,26,109,40,38,72,281,38,1*7A
$GBGSV,4,3,15,44,67,065,35,34,41,320,35,40,74,141,38,04,35,119,35,1*71
$GBGSV,4,4,15,21,62,179,44,11,18,310,23,03,53,198,24,1*43
$GBGSV,4,1,15,01,46,136,35,10,74,269,35,07,77,214,40,12,62,356,43,8*72
$GBGSV,4,2,15,59,48,143,42,22,52,054,41,35,26,109,32,38,72,281,40,8*74
$GBGSV,4,3,15,44,67,065,44,34,41,320,36,40,74,141,42,04,35,119,34,8*71
$GBGSV,4,4,15,21,62,179,42,08,62,259,22,11,18,310,21,8*4F
$GBGSV,2,1,08,01,46,136,39,10,74,269,41,07,77,214,44,12,62,356,48,B*02
$GBGSV,2,2,08,04,35,119,41,08,62,259,25,11,18,310,27,03,53,198,33,B*0D
