#UNIHEADINGA,92,GPS,FINE,2364,198393000,0,0,18,12;SOL_COMPUTED,NARROW_INT,0.7737,351.7451,-0.9913,0.0000,0.8844,1.8731,"999",16,14,14,14,3,01,0,c0*c766c201
$GBGBS,070615.00,0.8,0.9,1.8,1,0.0,1.6,10.1,4,1*73
$GBGSV,4,1,14,01,46,136,38,10,73,265,36,07,76,213,40,12,64,000,45,1*79
$GBGSV,4,2,14,59,48,143,42,22,50,051,39,35,24,111,39,38,71,286,38,1*7F
$GBGSV,4,3,14,44,66,071,43,34,43,322,39,40,73,146,44,04,36,118,41,1*73
$GBGSV,4,4,14,21,65,178,45,11,20,312,27,1*7B
$GBGSV,4,1,15,01,46,136,39,10,73,265,38,07,76,213,39,12,64,000,42,8*77
$GBGSV,4,2,15,59,48,143,42,22,50,051,41,35,24,111,38,38,71,286,40,8*76
$GBGSV,4,3,15,44,66,071,45,34,43,322,35,40,73,146,41,04,36,118,38,8*7A
$GBGSV,4,4,15,21,65,178,41,08,62,262,12,11,20,312,33,8*4B
$GBGSV,2,1,08,01,46,136,40,10,73,265,40,07,76,213,42,12,64,000,45,B*0D
$GBGSV,2,2,08,04,36,118,40,08,62,262,22,11,20,312,30,03,53,198,29,B*05
$GBGGA,070616.00,3019.25182399,N,12004.27520021,E,4,14,1.2,5.1062,M,7.8977,M,2.0,589*57
$GBGGA,070616.00,3019.25182399,N,12004.27520021,E,4,14,1.2,5.1062,M,7.8977,M,2.0,589*57
$GBGNS,070616.00,3019.25182399,N,12004.27520021,E,NNNRN,14,1.2,5.1062,7.8977,,,S*4D
$GBGNS,070616.00,,,,,,14,,,,2.0,589,S*15
$GBGLL,3019.25182399,N,12004.27520021,E,070616.00,A,D*7A
$GBGSA,M,3,01,10,07,12,59,22,35,38,44,34,40,04,1.9,1.2,1.4,4*38
$GBGSA,M,3,21,11,,,,,,,,,,,1.9,1.2,1.4,4*39
$GBRMC,070616.00,D,3019.25182399,N,12004.27520021,E,0.010,48.1,290425,6.0,W,R,S*6A
$GBGST,070616.00,0.79,0.02,0.01,51.4289,0.017,0.019,0.043*74
#UNIHEADINGA,93,GPS,FINE,2364,198394000,0,0,18,12;SOL_COMPUTED,NARROW_INT,0.7728,351.5483,-1.3935,0.0000,0.8858,1.8725,"999",16,14,14,14,3,01,0,c0*75a2b035
$GBGBS,070616.00,0.8,0.9,1.8,1,0.0,1.6,10.2,4,1*73
$GBGSV,4,1,14,01,46,136,38,10,73,265,36,07,76,213,40,12,64,000,45,1*79
$GBGSV,4,2,14,59,48,143,42,22,50,051,40,35,24,111,39,38,71,286,38,1*71
$GBGSV,4,3,14,44,66,071,43,34,43,322,39,40,73,146,45,04,36,118,42,1*71
$GBGSV,4,4,14,21,65,178,46,11,20,312,28,1*77
$GBGSV,4,1,15,01,46,136,39,10,73,265,38,07,76,213,39,12,64,000,42,8*77
$GBGSV,4,2,15,59,48,143,42,22,50,051,42,35,24,111,38,38,71,286,40,8*75
$GBGSV,4,3,15,44,66,071,45,34,43,322,36,40,73,146,41,04,36,118,38,8*79
$GBGSV,4,4,15,21,65,178,41,08,62,262,12,11,20,312,33,8*4B
$GBGSV,2,1,08,01,46,136,41,10,73,265,40,07,76,213,42,12,64,000,45,B*0C
$GBGSV,2,2,08,04,36,118,40,08,62,262,22,11,20,312,31,03,53,198,29,B*04
$GBGGA,070617.00,3019.25182563,N,12004.27520420,E,4,14,1.2,5.1082,M,7.8977,M,2.0,589*5E
$GBGGA,070617.00,3019.25182563,N,12004.27520420,E,4,14,1.2,5.1082,M,7.8977,M,2.0,589*5E
$GBGNS,070617.00,3019.25182563,N,12004.27520420,E,NNNRN,14,1.2,5.1082,7.8977,,,S*44
$GBGNS,070617.00,,,,,,14,,,,2.0,589,S*14
$GBGLL,3019.25182563,N,12004.27520420,E,070617.00,A,D*7D
$GBGSA,M,3,01,10,07,12,59,22,35,38,44,34,40,04,1.9,1.2,1.4,4*38
$GBGSA,M,3,21,11,,,,,,,,,,,1.9,1.2,1.4,4*39
$GBRMC,070617.00,D,3019.25182563,N,12004.27520420,E,0.027,39.6,290425,6.0,W,R,S*68
$GBGST,070617.00,0.80,0.02,0.01,51.4278,0.017,0.018,0.043*7C
#UNIHEADINGA,93,GPS,FINE,2364,198395000,0,0,18,12;SOL_COMPUTED,NARROW_INT,0.7742,351.7027,-1.4668,0.0000,0.8811,1.8638,"999",16,14,14,14,3,01,0,c0*47cca3a5
$GBGBS,070617.00,0.6,0.7,1.7,1,0.0,1.7,10.0,4,1*7E
$GBGSV,4,1,14,01,46,136,39,10,73,265,37,07,76,213,41,12,64,000,46,1*7B
$GBGSV,4,2,14,59,48,143,43,22,50,051,41,35,24,111,39,38,71,286,39,1*70
$GBGSV,4,3,14,44,66,072,43,34,43,322,40,40,73,146,45,04,36,118,42,1*7C
$GBGSV,4,4,14,21,65,178,46,11,20,312,29,1*76
$GBGSV,4,1,15,01,46,136,39,10,73,265,38,07,76,213,39,12,64,000,42,8*77
$GBGSV,4,2,15,59,48,143,42,22,50,051,42,35,24,111,38,38,71,286,40,8*75
$GBGSV,4,3,15,44,66,072,46,34,43,322,36,40,73,146,41,04,36,118,39,8*78
$GBGSV,4,4,15,21,65,178,41,08,62,262,12,11,20,312,33,8*4B
$GBGSV,2,1,08,01,46,136,41,10,73,265,40,07,76,213,43,12,64,000,45,B*0D
$GBGSV,2,2,08,04,36,118,41,08,62,262,21,11,20,312,31,03,53,198,30,B*0E
$GBGGA,070618.00,3019.25182674,N,12004.27520445,E,4,14,1.2,5.1072,M,7.8977,M,2.0,589*58
$GBGGA,070618.00,3019.25182674,N,12004.27520445,E,4,14,1.2,5.1072,M,7.8977,M,2.0,589*58
$GBGNS,070618.00,3019.25182674,N,12004.27520445,E,NNNRN,14,1.2,5.1072,7.8977,,,S*42
$GBGNS,070618.00,,,,,,14,,,,2.0,589,S*1B
$GBGLL,3019.25182674,N,12004.27520445,E,070618.00,A,D*74
$GBGSA,M,3,01,10,07,12,59,22,35,38,44,34,40,04,1.9,1.2,1.4,4*38
$GBGSA,M,3,21,11,,,,,,,,,,,1.9,1.2,1.4,4*39
$GBRMC,070618.00,D,3019.25182674,N,12004.27520445,E,0.025,357.3,290425,6.0,W,R,S*5D
$GBGST,070618.00,0.79,0.02,0.01,51.4532,0.017,0.018,0.043*7C
#UNIHEADINGA,93,GPS,FINE,2364,198396000,0,0,18,12;SOL_COMPUTED,NARROW_INT,0.7768,351.9198,-1.2791,0.0000,0.8807,1.8668,"999",16,14,14,14,3,01,0,c0*39c96930
$GBGBS,070618.00,0.7,0.8,1.8,1,0.0,1.7,10.0,4,1*70
$GBGSV,4,1,14,01,46,136,38,10,73,265,36,07,76,213,40,12,64,000,45,1*79
$GBGSV,4,2,14,59,48,143,43,22,50,051,41,35,24,111,38,38,71,286,38,1*70
$GBGSV,4,3,14,44,66,072,43,34,43,322,40,40,73,146,45,04,36,118,42,1*7C
$GBGSV,4,4,14,21,65,178,46,11,20,312,28,1*77
$GBGSV,4,1,15,01,46,136,39,10,73,265,38,07,76,213,40,12,64,000,42,8*79
$GBGSV,4,2,15,59,48,143,42,22,50,051,42,35,24,111,38,38,71,286,40,8*75
$GBGSV,4,3,15,44,66,072,46,34,43,322,36,40,73,146,41,04,36,118,39,8*78
$GBGSV,4,4,15,21,65,178,41,08,62,263,13,11,20,312,33,8*4B
$GBGSV,2,1,08,01,46,136,40,10,73,265,40,07,76,213,42,12,64,000,45,B*0D
$GBGSV,2,2,08,04,36,118,40,08,62,263,21,11,20,312,31,03,53,198,30,B*0E
$GBGGA,070619.00,3019.25182689,N,12004.27520153,E,4,14,1.2,5.1059,M,7.8977,M,2.0,589*50
$GBGGA,070619.00,3019.25182689,N,12004.27520153,E,4,14,1.2,5.1059,M,7.8977,M,2.0,589*50
$GBGNS,070619.00,3019.25182689,N,12004.27520153,E,NNNRN,14,1.2,5.1059,7.8977,,,S*4A
$GBGNS,070619.00,,,,,,14,,,,2.0,589,S*1A
$GBGLL,3019.25182689,N,12004.27520153,E,070619.00,A,D*75
$GBGSA,M,3,01,10,07,12,59,22,35,38,44,34,40,04,1.9,1.2,1.4,4*38
$GBGSA,M,3,21,11,,,,,,,,,,,1.9,1.2,1.4,4*39
$GBRMC,070619.00,D,3019.25182689,N,12004.27520153,E,0.040,45.7,290425,6.0,W,R,S*6B
$GBGST,070619.00,0.82,0.02,0.01,51.4623,0.017,0.018,0.043*7A
#UNIHEADINGA,92,GPS,FINE,2364,198397000,0,0,18,12;SOL_COMPUTED,NARROW_INT,0.7763,351.7148,-1.8214,0.0000,0.8793,1.8595,"999",16,14,14,14,3,01,0,c0*3c9b22ac
$GBGBS,070619.00,0.8,0.9,1.9,1,0.0,1.7,10.5,4,1*7B
$GBGSV,4,1,14,01,46,136,38,10,73,265,36,07,76,213,40,12,64,000,45,1*79
$GBGSV,4,2,14,59,48,143,43,22,50,051,42,35,24,111,38,38,71,286,39,1*72
$GBGSV,4,3,14,44,66,072,42,34,43,322,40,40,73,146,45,04,36,118,42,1*7D
$GBGSV,4,4,14,21,65,178,46,11,20,312,27,1*78
$GBGSV,4,1,15,01,46,136,39,10,73,265,38,07,76,213,40,12,64,000,42,8*79
$GBGSV,4,2,15,59,48,143,42,22,50,051,42,35,24,111,39,38,71,286,40,8*74
$GBGSV,4,3,15,44,66,072,46,34,43,322,36,40,73,146,42,04,36,118,39,8*7B
$GBGSV,4,4,15,21,65,178,41,08,62,263,13,11,20,312,34,8*4C
$GBGSV,2,1,08,01,46,136,41,10,73,265,40,07,76,213,43,12,64,000,45,B*0D
$GBGSV,2,2,08,04,36,118,41,08,62,263,22,11,20,312,31,03,53,198,29,B*04
$GBGGA,070620.00,3019.25182575,N,12004.27520415,E,4,14,1.2,5.1151,M,7.8977,M,2.0,589*54
$GBGGA,070620.00,3019.25182575,N,12004.27520415,E,4,14,1.2,5.1151,M,7.8977,M,2.0,589*54
$GBGNS,070620.00,3019.25182575,N,12004.27520415,E,NNNRN,14,1.2,5.1151,7.8977,,,S*4E
$GBGNS,070620.00,,,,,,14,,,,2.0,589,S*10
$GBGLL,3019.25182575,N,12004.27520415,E,070620.00,A,D*78
$GBGSA,M,3,01,10,07,12,59,22,35,38,44,34,40,04,1.9,1.2,1.4,4*38
$GBGSA,M,3,21,11,,,,,,,,,,,1.9,1.2,1.4,4*39
$GBRMC,070620.00,D,3019.25182575,N,12004.27520415,E,0.021,28.5,290425,6.0,W,R,S*68
$GBGST,070620.00,0.81,0.02,0.01,51.4554,0.017,0.018,0.043*70
#UNIHEADINGA,93,GPS,FINE,2364,198398000,0,0,18,12;SOL_COMPUTED,NARROW_INT,0.7758,351.3469,-1.6551,0.0000,0.8843,1.8715,"999",16,14,14,14,3,01,0,c0*43248526
$GBGBS,070620.00,0.7,0.8,1.8,1,0.0,1.7,10.2,4,1*79
$GBGSV,4,1,14,01,46,136,38,10,73,265,36,07,76,213,40,12,64,000,45,1*79
$GBGSV,4,2,14,59,48,143,42,22,50,051,42,35,24,111,38,38,71,286,38,1*72
$GBGSV,4,3,14,44,66,072,42,34,43,322,39,40,73,146,45,04,36,118,41,1*70
$GBGSV,4,4,14,21,65,178,46,11,20,312,27,1*78
$GBGSV,4,1,15,01,46,136,39,10,73,265,38,07,76,213,39,12,64,000,42,8*77
$GBGSV,4,2,15,59,48,143,42,22,50,051,42,35,24,111,38,38,71,286,40,8*75
$GBGSV,4,3,15,44,66,072,45,34,43,322,35,40,73,146,41,04,36,118,39,8*78
$GBGSV,4,4,15,21,65,178,41,08,62,263,12,11,20,312,33,8*4A
$GBGSV,2,1,08,01,46,136,41,10,73,265,40,07,76,213,43,12,64,000,45,B*0D
$GBGSV,2,2,08,04,36,118,41,08,62,263,21,11,20,312,31,03,53,198,30,B*0F
$GBGGA,070621.00,3019.25182694,N,12004.27520419,E,4,14,1.2,5.1081,M,7.8977,M,2.0,589*59
$GBGGA,070621.00,3019.25182694,N,12004.27520419,E,4,14,1.2,5.1081,M,7.8977,M,2.0,589*59
$GBGNS,070621.00,3019.25182694,N,12004.27520419,E,NNNRN,14,1.2,5.1081,7.8977,,,S*43
$GBGNS,070621.00,,,,,,14,,,,2.0,589,S*11
$GBGLL,3019.25182694,N,12004.27520419,E,070621.00,A,D*79
$GBGSA,M,3,01,10,07,12,59,22,35,38,44,34,40,04,1.9,1.2,1.4,4*38
$GBGSA,M,3,21,11,,,,,,,,,,,1.9,1.2,1.4,4*39
$GBRMC,070621.00,D,3019.25182694,N,12004.27520419,E,0.010,29.6,290425,6.0,W,R,S*69
$GBGST,070621.00,0.82,0.02,0.01,51.6545,0.017,0.018,0.043*70
#UNIHEADINGA,93,GPS,FINE,2364,198399000,0,0,18,12;SOL_COMPUTED,NARROW_INT,0.7743,351.1844,-1.5509,0.0000,0.8859,1.8722,"999",16,14,14,14,3,01,0,c0*025c43f0
$GBGBS,070621.00,0.8,0.9,1.9,1,0.0,1.7,10.5,4,1*70
$GBGSV,4,1,14,01,46,136,38,10,73,265,36,07,76,213,40,12,64,000,45,1*79
$GBGSV,4,2,14,59,48,143,42,22,50,051,43,35,24,111,37,38,71,286,38,1*7C
$GBGSV,4,3,14,44,66,072,41,34,43,322,39,40,73,146,45,04,36,118,42,1*70
$GBGSV,4,4,14,21,65,178,46,11,20,312,27,1*78
$GBGSV,4,1,15,01,46,136,39,10,73,265,38,07,76,213,39,12,64,000,42,8*77
$GBGSV,4,2,15,59,48,143,42,22,50,051,41,35,24,111,38,38,71,286,39,8*78
$GBGSV,4,3,15,44,66,072,45,34,43,322,35,40,73,146,41,04,36,118,39,8*78
$GBGSV,4,4,15,21,65,178,41,08,62,263,13,11,20,312,33,8*4B
$GBGSV,2,1,08,01,46,136,41,10,73,265,41,07,76,213,43,12,64,000,46,B*0F
$GBGSV,2,2,08,04,36,118,41,08,62,263,22,11,20,312,32,03,53,198,29,B*07
$GBGGA,070622.00,3019.25182578,N,12004.27520174,E,4,14,1.2,5.1037,M,7.8977,M,2.0,589*58
$GBGGA,070622.00,3019.25182578,N,12004.27520174,E,4,14,1.2,5.1037,M,7.8977,M,2.0,589*58
$GBGNS,070622.00,3019.25182578,N,12004.27520174,E,NNNRN,14,1.2,5.1037,7.8977,,,S*42
$GBGNS,070622.00,,,,,,14,,,,2.0,589,S*12
$GBGLL,3019.25182578,N,12004.27520174,E,070622.00,A,D*75
$GBGSA,M,3,01,10,07,12,59,22,35,38,44,34,40,04,1.9,1.2,1.4,4*38
$GBGSA,M,3,21,11,,,,,,,,,,,1.9,1.2,1.4,4*39
$GBRMC,070622.00,D,3019.25182578,N,12004.27520174,E,0.005,334.6,290425,6.0,W,R,S*5E
$GBGST,070622.00,0.81,0.02,0.01,51.6016,0.017,0.019,0.043*72
#UNIHEADINGA,93,GPS,FINE,2364,198400000,0,0,18,12;SOL_COMPUTED,NARROW_INT,0.7760,351.5205,-1.6910,0.0000,0.8850,1.8744,"999",16,14,14,14,3,01,0,c0*5436d089
$GBGBS,070622.00,0.7,0.8,1.7,1,0.0,1.6,10.2,4,1*75
$GBGSV,4,1,14,01,46,136,37,10,73,265,35,07,76,213,40,12,64,000,45,1*75
$GBGSV,4,2,14,59,48,143,42,22,50,051,42,35,24,111,37,38,71,286,38,1*7D
$GBGSV,4,3,14,44,66,072,40,34,43,322,39,40,73,146,44,04,36,118,41,1*73
$GBGSV,4,4,14,21,65,178,46,11,20,312,26,1*79
$GBGSV,4,1,15,01,46,136,39,10,73,265,38,07,76,213,39,12,64,000,42,8*77
$GBGSV,4,2,15,59,48,143,42,22,50,051,41,35,24,111,38,38,71,286,39,8*78
$GBGSV,4,3,15,44,66,072,45,34,43,322,35,40,73,146,41,04,36,118,38,8*79
$GBGSV,4,4,15,21,65,178,41,08,62,263,13,11,20,312,33,8*4B
$GBGSV,2,1,08,01,46,136,40,10,73,265,40,07,76,213,43,12,64,000,45,B*0C
$GBGSV,2,2,08,04,36,118,40,08,62,263,21,11,20,312,31,03,53,198,29,B*06
$GBGGA,070623.00,3019.25182507,N,12004.27520301,E,4,14,1.2,5.1090,M,7.8977,M,2.0,589*5C
$GBGGA,070623.00,3019.25182507,N,12004.27520301,E,4,14,1.2,5.1090,M,7.8977,M,2.0,589*5C
$GBGNS,070623.00,3019.25182507,N,12004.27520301,E,NNNRN,14,1.2,5.1090,7.8977,,,S*46
$GBGNS,070623.00,,,,,,14,,,,2.0,589,S*13
$GBGLL,3019.25182507,N,12004.27520301,E,070623.00,A,D*7C
$GBGSA,M,3,01,10,07,12,59,22,35,38,44,34,40,04,1.9,1.2,1.4,4*38
$GBGSA,M,3,21,11,,,,,,,,,,,1.9,1.2,1.4,4*39
$GBRMC,070623.00,D,3019.25182507,N,12004.27520301,E,0.006,40.4,290425,6.0,W,R,S*66
$GBGST,070623.00,0.76,0.02,0.01,51.7255,0.017,0.019,0.043*7F
#UNIHEADINGA,92,GPS,FINE,2364,198401000,0,0,18,12;SOL_COMPUTED,NARROW_INT,0.7713,351.2625,-1.2604,0.0000,0.8986,1.9005,"999",16,14,14,14,3,01,0,c0*62f42d91
$GBGBS,070623.00,0.6,0.7,1.6,1,0.0,1.6,9.9,4,1*48
$GBGSV,4,1,14,01,46,136,37,10,73,265,34,07,76,213,39,12,64,000,44,1*7B
$GBGSV,4,2,14,59,48,143,41,22,50,051,42,35,24,111,36,38,71,286,37,1*70
